[ {
  "CountryName" : "Somaliland",
  "CapitalName" : "Hargeisa",
  "CapitalLatitude" : 9.55,
  "CapitalLongitude" : 44.05,
  "CountryCode" : "NULL",
  "ContinentName" : "Africa",
  "continentName" : "Africa",
  "countryName" : "Somaliland",
  "capitalName" : "Hargeisa",
  "countryCode" : "NULL",
  "capitalLatitude" : 9.55,
  "capitalLongitude" : 44.05
}, {
  "CountryName" : "Western Sahara",
  "CapitalName" : "El-Aaiún",
  "CapitalLatitude" : 27.153611,
  "CapitalLongitude" : -13.203333,
  "CountryCode" : "EH",
  "ContinentName" : "Africa",
  "continentName" : "Africa",
  "countryName" : "Western Sahara",
  "capitalName" : "El-Aaiún",
  "countryCode" : "EH",
  "capitalLatitude" : 27.153611,
  "capitalLongitude" : -13.203333
}, {
  "CountryName" : "Algeria",
  "CapitalName" : "Algiers",
  "CapitalLatitude" : 36.75,
  "CapitalLongitude" : 3.05,
  "CountryCode" : "DZ",
  "ContinentName" : "Africa",
  "continentName" : "Africa",
  "countryName" : "Algeria",
  "capitalName" : "Algiers",
  "countryCode" : "DZ",
  "capitalLatitude" : 36.75,
  "capitalLongitude" : 3.05
}, {
  "CountryName" : "Angola",
  "CapitalName" : "Luanda",
  "CapitalLatitude" : -8.833333333333334,
  "CapitalLongitude" : 13.216667,
  "CountryCode" : "AO",
  "ContinentName" : "Africa",
  "continentName" : "Africa",
  "countryName" : "Angola",
  "capitalName" : "Luanda",
  "countryCode" : "AO",
  "capitalLatitude" : -8.833333333333334,
  "capitalLongitude" : 13.216667
}, {
  "CountryName" : "Benin",
  "CapitalName" : "Porto-Novo",
  "CapitalLatitude" : 6.483333333333333,
  "CapitalLongitude" : 2.616667,
  "CountryCode" : "BJ",
  "ContinentName" : "Africa",
  "continentName" : "Africa",
  "countryName" : "Benin",
  "capitalName" : "Porto-Novo",
  "countryCode" : "BJ",
  "capitalLatitude" : 6.483333333333333,
  "capitalLongitude" : 2.616667
}, {
  "CountryName" : "Botswana",
  "CapitalName" : "Gaborone",
  "CapitalLatitude" : -24.633333333333333,
  "CapitalLongitude" : 25.9,
  "CountryCode" : "BW",
  "ContinentName" : "Africa",
  "continentName" : "Africa",
  "countryName" : "Botswana",
  "capitalName" : "Gaborone",
  "countryCode" : "BW",
  "capitalLatitude" : -24.633333333333333,
  "capitalLongitude" : 25.9
}, {
  "CountryName" : "Burkina Faso",
  "CapitalName" : "Ouagadougou",
  "CapitalLatitude" : 12.366666666666667,
  "CapitalLongitude" : -1.516667,
  "CountryCode" : "BF",
  "ContinentName" : "Africa",
  "continentName" : "Africa",
  "countryName" : "Burkina Faso",
  "capitalName" : "Ouagadougou",
  "countryCode" : "BF",
  "capitalLatitude" : 12.366666666666667,
  "capitalLongitude" : -1.516667
}, {
  "CountryName" : "Burundi",
  "CapitalName" : "Bujumbura",
  "CapitalLatitude" : -3.3666666666666667,
  "CapitalLongitude" : 29.35,
  "CountryCode" : "BI",
  "ContinentName" : "Africa",
  "continentName" : "Africa",
  "countryName" : "Burundi",
  "capitalName" : "Bujumbura",
  "countryCode" : "BI",
  "capitalLatitude" : -3.3666666666666667,
  "capitalLongitude" : 29.35
}, {
  "CountryName" : "Cameroon",
  "CapitalName" : "Yaounde",
  "CapitalLatitude" : 3.8666666666666667,
  "CapitalLongitude" : 11.516667,
  "CountryCode" : "CM",
  "ContinentName" : "Africa",
  "continentName" : "Africa",
  "countryName" : "Cameroon",
  "capitalName" : "Yaounde",
  "countryCode" : "CM",
  "capitalLatitude" : 3.8666666666666667,
  "capitalLongitude" : 11.516667
}, {
  "CountryName" : "Cape Verde",
  "CapitalName" : "Praia",
  "CapitalLatitude" : 14.916666666666666,
  "CapitalLongitude" : -23.516667,
  "CountryCode" : "CV",
  "ContinentName" : "Africa",
  "continentName" : "Africa",
  "countryName" : "Cape Verde",
  "capitalName" : "Praia",
  "countryCode" : "CV",
  "capitalLatitude" : 14.916666666666666,
  "capitalLongitude" : -23.516667
}, {
  "CountryName" : "Central African Republic",
  "CapitalName" : "Bangui",
  "CapitalLatitude" : 4.366666666666666,
  "CapitalLongitude" : 18.583333,
  "CountryCode" : "CF",
  "ContinentName" : "Africa",
  "continentName" : "Africa",
  "countryName" : "Central African Republic",
  "capitalName" : "Bangui",
  "countryCode" : "CF",
  "capitalLatitude" : 4.366666666666666,
  "capitalLongitude" : 18.583333
}, {
  "CountryName" : "Chad",
  "CapitalName" : "N'Djamena",
  "CapitalLatitude" : 12.1,
  "CapitalLongitude" : 15.033333,
  "CountryCode" : "TD",
  "ContinentName" : "Africa",
  "continentName" : "Africa",
  "countryName" : "Chad",
  "capitalName" : "N'Djamena",
  "countryCode" : "TD",
  "capitalLatitude" : 12.1,
  "capitalLongitude" : 15.033333
}, {
  "CountryName" : "Comoros",
  "CapitalName" : "Moroni",
  "CapitalLatitude" : -11.7,
  "CapitalLongitude" : 43.233333,
  "CountryCode" : "KM",
  "ContinentName" : "Africa",
  "continentName" : "Africa",
  "countryName" : "Comoros",
  "capitalName" : "Moroni",
  "countryCode" : "KM",
  "capitalLatitude" : -11.7,
  "capitalLongitude" : 43.233333
}, {
  "CountryName" : "Democratic Republic of the Congo",
  "CapitalName" : "Kinshasa",
  "CapitalLatitude" : -4.316666666666666,
  "CapitalLongitude" : 15.3,
  "CountryCode" : "CD",
  "ContinentName" : "Africa",
  "continentName" : "Africa",
  "countryName" : "Democratic Republic of the Congo",
  "capitalName" : "Kinshasa",
  "countryCode" : "CD",
  "capitalLatitude" : -4.316666666666666,
  "capitalLongitude" : 15.3
}, {
  "CountryName" : "Republic of Congo",
  "CapitalName" : "Brazzaville",
  "CapitalLatitude" : -4.25,
  "CapitalLongitude" : 15.283333,
  "CountryCode" : "CG",
  "ContinentName" : "Africa",
  "continentName" : "Africa",
  "countryName" : "Republic of Congo",
  "capitalName" : "Brazzaville",
  "countryCode" : "CG",
  "capitalLatitude" : -4.25,
  "capitalLongitude" : 15.283333
}, {
  "CountryName" : "Cote d'Ivoire",
  "CapitalName" : "Yamoussoukro",
  "CapitalLatitude" : 6.816666666666666,
  "CapitalLongitude" : -5.266667,
  "CountryCode" : "CI",
  "ContinentName" : "Africa",
  "continentName" : "Africa",
  "countryName" : "Cote d'Ivoire",
  "capitalName" : "Yamoussoukro",
  "countryCode" : "CI",
  "capitalLatitude" : 6.816666666666666,
  "capitalLongitude" : -5.266667
}, {
  "CountryName" : "Djibouti",
  "CapitalName" : "Djibouti",
  "CapitalLatitude" : 11.583333333333334,
  "CapitalLongitude" : 43.15,
  "CountryCode" : "DJ",
  "ContinentName" : "Africa",
  "continentName" : "Africa",
  "countryName" : "Djibouti",
  "capitalName" : "Djibouti",
  "countryCode" : "DJ",
  "capitalLatitude" : 11.583333333333334,
  "capitalLongitude" : 43.15
}, {
  "CountryName" : "Egypt",
  "CapitalName" : "Cairo",
  "CapitalLatitude" : 30.05,
  "CapitalLongitude" : 31.25,
  "CountryCode" : "EG",
  "ContinentName" : "Africa",
  "continentName" : "Africa",
  "countryName" : "Egypt",
  "capitalName" : "Cairo",
  "countryCode" : "EG",
  "capitalLatitude" : 30.05,
  "capitalLongitude" : 31.25
}, {
  "CountryName" : "Equatorial Guinea",
  "CapitalName" : "Malabo",
  "CapitalLatitude" : 3.75,
  "CapitalLongitude" : 8.783333,
  "CountryCode" : "GQ",
  "ContinentName" : "Africa",
  "continentName" : "Africa",
  "countryName" : "Equatorial Guinea",
  "capitalName" : "Malabo",
  "countryCode" : "GQ",
  "capitalLatitude" : 3.75,
  "capitalLongitude" : 8.783333
}, {
  "CountryName" : "Eritrea",
  "CapitalName" : "Asmara",
  "CapitalLatitude" : 15.333333333333334,
  "CapitalLongitude" : 38.933333,
  "CountryCode" : "ER",
  "ContinentName" : "Africa",
  "continentName" : "Africa",
  "countryName" : "Eritrea",
  "capitalName" : "Asmara",
  "countryCode" : "ER",
  "capitalLatitude" : 15.333333333333334,
  "capitalLongitude" : 38.933333
}, {
  "CountryName" : "Ethiopia",
  "CapitalName" : "Addis Ababa",
  "CapitalLatitude" : 9.033333333333333,
  "CapitalLongitude" : 38.7,
  "CountryCode" : "ET",
  "ContinentName" : "Africa",
  "continentName" : "Africa",
  "countryName" : "Ethiopia",
  "capitalName" : "Addis Ababa",
  "countryCode" : "ET",
  "capitalLatitude" : 9.033333333333333,
  "capitalLongitude" : 38.7
}, {
  "CountryName" : "Gabon",
  "CapitalName" : "Libreville",
  "CapitalLatitude" : 0.38333333333333336,
  "CapitalLongitude" : 9.45,
  "CountryCode" : "GA",
  "ContinentName" : "Africa",
  "continentName" : "Africa",
  "countryName" : "Gabon",
  "capitalName" : "Libreville",
  "countryCode" : "GA",
  "capitalLatitude" : 0.38333333333333336,
  "capitalLongitude" : 9.45
}, {
  "CountryName" : "The Gambia",
  "CapitalName" : "Banjul",
  "CapitalLatitude" : 13.45,
  "CapitalLongitude" : -16.566667,
  "CountryCode" : "GM",
  "ContinentName" : "Africa",
  "continentName" : "Africa",
  "countryName" : "The Gambia",
  "capitalName" : "Banjul",
  "countryCode" : "GM",
  "capitalLatitude" : 13.45,
  "capitalLongitude" : -16.566667
}, {
  "CountryName" : "Ghana",
  "CapitalName" : "Accra",
  "CapitalLatitude" : 5.55,
  "CapitalLongitude" : -0.216667,
  "CountryCode" : "GH",
  "ContinentName" : "Africa",
  "continentName" : "Africa",
  "countryName" : "Ghana",
  "capitalName" : "Accra",
  "countryCode" : "GH",
  "capitalLatitude" : 5.55,
  "capitalLongitude" : -0.216667
}, {
  "CountryName" : "Guinea",
  "CapitalName" : "Conakry",
  "CapitalLatitude" : 9.5,
  "CapitalLongitude" : -13.7,
  "CountryCode" : "GN",
  "ContinentName" : "Africa",
  "continentName" : "Africa",
  "countryName" : "Guinea",
  "capitalName" : "Conakry",
  "countryCode" : "GN",
  "capitalLatitude" : 9.5,
  "capitalLongitude" : -13.7
}, {
  "CountryName" : "Guinea-Bissau",
  "CapitalName" : "Bissau",
  "CapitalLatitude" : 11.85,
  "CapitalLongitude" : -15.583333,
  "CountryCode" : "GW",
  "ContinentName" : "Africa",
  "continentName" : "Africa",
  "countryName" : "Guinea-Bissau",
  "capitalName" : "Bissau",
  "countryCode" : "GW",
  "capitalLatitude" : 11.85,
  "capitalLongitude" : -15.583333
}, {
  "CountryName" : "Kenya",
  "CapitalName" : "Nairobi",
  "CapitalLatitude" : -1.2833333333333332,
  "CapitalLongitude" : 36.816667,
  "CountryCode" : "KE",
  "ContinentName" : "Africa",
  "continentName" : "Africa",
  "countryName" : "Kenya",
  "capitalName" : "Nairobi",
  "countryCode" : "KE",
  "capitalLatitude" : -1.2833333333333332,
  "capitalLongitude" : 36.816667
}, {
  "CountryName" : "Lesotho",
  "CapitalName" : "Maseru",
  "CapitalLatitude" : -29.316666666666666,
  "CapitalLongitude" : 27.483333,
  "CountryCode" : "LS",
  "ContinentName" : "Africa",
  "continentName" : "Africa",
  "countryName" : "Lesotho",
  "capitalName" : "Maseru",
  "countryCode" : "LS",
  "capitalLatitude" : -29.316666666666666,
  "capitalLongitude" : 27.483333
}, {
  "CountryName" : "Liberia",
  "CapitalName" : "Monrovia",
  "CapitalLatitude" : 6.3,
  "CapitalLongitude" : -10.8,
  "CountryCode" : "LR",
  "ContinentName" : "Africa",
  "continentName" : "Africa",
  "countryName" : "Liberia",
  "capitalName" : "Monrovia",
  "countryCode" : "LR",
  "capitalLatitude" : 6.3,
  "capitalLongitude" : -10.8
}, {
  "CountryName" : "Libya",
  "CapitalName" : "Tripoli",
  "CapitalLatitude" : 32.88333333333333,
  "CapitalLongitude" : 13.166667,
  "CountryCode" : "LY",
  "ContinentName" : "Africa",
  "continentName" : "Africa",
  "countryName" : "Libya",
  "capitalName" : "Tripoli",
  "countryCode" : "LY",
  "capitalLatitude" : 32.88333333333333,
  "capitalLongitude" : 13.166667
}, {
  "CountryName" : "Madagascar",
  "CapitalName" : "Antananarivo",
  "CapitalLatitude" : -18.916666666666668,
  "CapitalLongitude" : 47.516667,
  "CountryCode" : "MG",
  "ContinentName" : "Africa",
  "continentName" : "Africa",
  "countryName" : "Madagascar",
  "capitalName" : "Antananarivo",
  "countryCode" : "MG",
  "capitalLatitude" : -18.916666666666668,
  "capitalLongitude" : 47.516667
}, {
  "CountryName" : "Malawi",
  "CapitalName" : "Lilongwe",
  "CapitalLatitude" : -13.966666666666667,
  "CapitalLongitude" : 33.783333,
  "CountryCode" : "MW",
  "ContinentName" : "Africa",
  "continentName" : "Africa",
  "countryName" : "Malawi",
  "capitalName" : "Lilongwe",
  "countryCode" : "MW",
  "capitalLatitude" : -13.966666666666667,
  "capitalLongitude" : 33.783333
}, {
  "CountryName" : "Mali",
  "CapitalName" : "Bamako",
  "CapitalLatitude" : 12.65,
  "CapitalLongitude" : -8.0,
  "CountryCode" : "ML",
  "ContinentName" : "Africa",
  "continentName" : "Africa",
  "countryName" : "Mali",
  "capitalName" : "Bamako",
  "countryCode" : "ML",
  "capitalLatitude" : 12.65,
  "capitalLongitude" : -8.0
}, {
  "CountryName" : "Mauritania",
  "CapitalName" : "Nouakchott",
  "CapitalLatitude" : 18.066666666666666,
  "CapitalLongitude" : -15.966667,
  "CountryCode" : "MR",
  "ContinentName" : "Africa",
  "continentName" : "Africa",
  "countryName" : "Mauritania",
  "capitalName" : "Nouakchott",
  "countryCode" : "MR",
  "capitalLatitude" : 18.066666666666666,
  "capitalLongitude" : -15.966667
}, {
  "CountryName" : "Mauritius",
  "CapitalName" : "Port Louis",
  "CapitalLatitude" : -20.15,
  "CapitalLongitude" : 57.483333,
  "CountryCode" : "MU",
  "ContinentName" : "Africa",
  "continentName" : "Africa",
  "countryName" : "Mauritius",
  "capitalName" : "Port Louis",
  "countryCode" : "MU",
  "capitalLatitude" : -20.15,
  "capitalLongitude" : 57.483333
}, {
  "CountryName" : "Morocco",
  "CapitalName" : "Rabat",
  "CapitalLatitude" : 34.016666666666666,
  "CapitalLongitude" : -6.816667,
  "CountryCode" : "MA",
  "ContinentName" : "Africa",
  "continentName" : "Africa",
  "countryName" : "Morocco",
  "capitalName" : "Rabat",
  "countryCode" : "MA",
  "capitalLatitude" : 34.016666666666666,
  "capitalLongitude" : -6.816667
}, {
  "CountryName" : "Mozambique",
  "CapitalName" : "Maputo",
  "CapitalLatitude" : -25.95,
  "CapitalLongitude" : 32.583333,
  "CountryCode" : "MZ",
  "ContinentName" : "Africa",
  "continentName" : "Africa",
  "countryName" : "Mozambique",
  "capitalName" : "Maputo",
  "countryCode" : "MZ",
  "capitalLatitude" : -25.95,
  "capitalLongitude" : 32.583333
}, {
  "CountryName" : "Namibia",
  "CapitalName" : "Windhoek",
  "CapitalLatitude" : -22.566666666666666,
  "CapitalLongitude" : 17.083333,
  "CountryCode" : "NA",
  "ContinentName" : "Africa",
  "continentName" : "Africa",
  "countryName" : "Namibia",
  "capitalName" : "Windhoek",
  "countryCode" : "NA",
  "capitalLatitude" : -22.566666666666666,
  "capitalLongitude" : 17.083333
}, {
  "CountryName" : "Niger",
  "CapitalName" : "Niamey",
  "CapitalLatitude" : 13.516666666666667,
  "CapitalLongitude" : 2.116667,
  "CountryCode" : "NE",
  "ContinentName" : "Africa",
  "continentName" : "Africa",
  "countryName" : "Niger",
  "capitalName" : "Niamey",
  "countryCode" : "NE",
  "capitalLatitude" : 13.516666666666667,
  "capitalLongitude" : 2.116667
}, {
  "CountryName" : "Nigeria",
  "CapitalName" : "Abuja",
  "CapitalLatitude" : 9.083333333333334,
  "CapitalLongitude" : 7.533333,
  "CountryCode" : "NG",
  "ContinentName" : "Africa",
  "continentName" : "Africa",
  "countryName" : "Nigeria",
  "capitalName" : "Abuja",
  "countryCode" : "NG",
  "capitalLatitude" : 9.083333333333334,
  "capitalLongitude" : 7.533333
}, {
  "CountryName" : "Rwanda",
  "CapitalName" : "Kigali",
  "CapitalLatitude" : -1.95,
  "CapitalLongitude" : 30.05,
  "CountryCode" : "RW",
  "ContinentName" : "Africa",
  "continentName" : "Africa",
  "countryName" : "Rwanda",
  "capitalName" : "Kigali",
  "countryCode" : "RW",
  "capitalLatitude" : -1.95,
  "capitalLongitude" : 30.05
}, {
  "CountryName" : "Saint Helena",
  "CapitalName" : "Jamestown",
  "CapitalLatitude" : -15.933333333333334,
  "CapitalLongitude" : -5.716667,
  "CountryCode" : "SH",
  "ContinentName" : "Africa",
  "continentName" : "Africa",
  "countryName" : "Saint Helena",
  "capitalName" : "Jamestown",
  "countryCode" : "SH",
  "capitalLatitude" : -15.933333333333334,
  "capitalLongitude" : -5.716667
}, {
  "CountryName" : "Sao Tome and Principe",
  "CapitalName" : "Sao Tome",
  "CapitalLatitude" : 0.3333333333333333,
  "CapitalLongitude" : 6.733333,
  "CountryCode" : "ST",
  "ContinentName" : "Africa",
  "continentName" : "Africa",
  "countryName" : "Sao Tome and Principe",
  "capitalName" : "Sao Tome",
  "countryCode" : "ST",
  "capitalLatitude" : 0.3333333333333333,
  "capitalLongitude" : 6.733333
}, {
  "CountryName" : "Senegal",
  "CapitalName" : "Dakar",
  "CapitalLatitude" : 14.733333333333333,
  "CapitalLongitude" : -17.633333,
  "CountryCode" : "SN",
  "ContinentName" : "Africa",
  "continentName" : "Africa",
  "countryName" : "Senegal",
  "capitalName" : "Dakar",
  "countryCode" : "SN",
  "capitalLatitude" : 14.733333333333333,
  "capitalLongitude" : -17.633333
}, {
  "CountryName" : "Seychelles",
  "CapitalName" : "Victoria",
  "CapitalLatitude" : -4.616666666666667,
  "CapitalLongitude" : 55.45,
  "CountryCode" : "SC",
  "ContinentName" : "Africa",
  "continentName" : "Africa",
  "countryName" : "Seychelles",
  "capitalName" : "Victoria",
  "countryCode" : "SC",
  "capitalLatitude" : -4.616666666666667,
  "capitalLongitude" : 55.45
}, {
  "CountryName" : "Sierra Leone",
  "CapitalName" : "Freetown",
  "CapitalLatitude" : 8.483333333333333,
  "CapitalLongitude" : -13.233333,
  "CountryCode" : "SL",
  "ContinentName" : "Africa",
  "continentName" : "Africa",
  "countryName" : "Sierra Leone",
  "capitalName" : "Freetown",
  "countryCode" : "SL",
  "capitalLatitude" : 8.483333333333333,
  "capitalLongitude" : -13.233333
}, {
  "CountryName" : "Somalia",
  "CapitalName" : "Mogadishu",
  "CapitalLatitude" : 2.066666666666667,
  "CapitalLongitude" : 45.333333,
  "CountryCode" : "SO",
  "ContinentName" : "Africa",
  "continentName" : "Africa",
  "countryName" : "Somalia",
  "capitalName" : "Mogadishu",
  "countryCode" : "SO",
  "capitalLatitude" : 2.066666666666667,
  "capitalLongitude" : 45.333333
}, {
  "CountryName" : "South Africa",
  "CapitalName" : "Pretoria",
  "CapitalLatitude" : -25.7,
  "CapitalLongitude" : 28.216667,
  "CountryCode" : "ZA",
  "ContinentName" : "Africa",
  "continentName" : "Africa",
  "countryName" : "South Africa",
  "capitalName" : "Pretoria",
  "countryCode" : "ZA",
  "capitalLatitude" : -25.7,
  "capitalLongitude" : 28.216667
}, {
  "CountryName" : "South Sudan",
  "CapitalName" : "Juba",
  "CapitalLatitude" : 4.85,
  "CapitalLongitude" : 31.616667,
  "CountryCode" : "SS",
  "ContinentName" : "Africa",
  "continentName" : "Africa",
  "countryName" : "South Sudan",
  "capitalName" : "Juba",
  "countryCode" : "SS",
  "capitalLatitude" : 4.85,
  "capitalLongitude" : 31.616667
}, {
  "CountryName" : "Sudan",
  "CapitalName" : "Khartoum",
  "CapitalLatitude" : 15.6,
  "CapitalLongitude" : 32.533333,
  "CountryCode" : "SD",
  "ContinentName" : "Africa",
  "continentName" : "Africa",
  "countryName" : "Sudan",
  "capitalName" : "Khartoum",
  "countryCode" : "SD",
  "capitalLatitude" : 15.6,
  "capitalLongitude" : 32.533333
}, {
  "CountryName" : "Swaziland",
  "CapitalName" : "Mbabane",
  "CapitalLatitude" : -26.316666666666666,
  "CapitalLongitude" : 31.133333,
  "CountryCode" : "SZ",
  "ContinentName" : "Africa",
  "continentName" : "Africa",
  "countryName" : "Swaziland",
  "capitalName" : "Mbabane",
  "countryCode" : "SZ",
  "capitalLatitude" : -26.316666666666666,
  "capitalLongitude" : 31.133333
}, {
  "CountryName" : "Tanzania",
  "CapitalName" : "Dar es Salaam",
  "CapitalLatitude" : -6.8,
  "CapitalLongitude" : 39.283333,
  "CountryCode" : "TZ",
  "ContinentName" : "Africa",
  "continentName" : "Africa",
  "countryName" : "Tanzania",
  "capitalName" : "Dar es Salaam",
  "countryCode" : "TZ",
  "capitalLatitude" : -6.8,
  "capitalLongitude" : 39.283333
}, {
  "CountryName" : "Togo",
  "CapitalName" : "Lome",
  "CapitalLatitude" : 6.116666666666666,
  "CapitalLongitude" : 1.216667,
  "CountryCode" : "TG",
  "ContinentName" : "Africa",
  "continentName" : "Africa",
  "countryName" : "Togo",
  "capitalName" : "Lome",
  "countryCode" : "TG",
  "capitalLatitude" : 6.116666666666666,
  "capitalLongitude" : 1.216667
}, {
  "CountryName" : "Tunisia",
  "CapitalName" : "Tunis",
  "CapitalLatitude" : 36.8,
  "CapitalLongitude" : 10.183333,
  "CountryCode" : "TN",
  "ContinentName" : "Africa",
  "continentName" : "Africa",
  "countryName" : "Tunisia",
  "capitalName" : "Tunis",
  "countryCode" : "TN",
  "capitalLatitude" : 36.8,
  "capitalLongitude" : 10.183333
}, {
  "CountryName" : "Uganda",
  "CapitalName" : "Kampala",
  "CapitalLatitude" : 0.31666666666666665,
  "CapitalLongitude" : 32.55,
  "CountryCode" : "UG",
  "ContinentName" : "Africa",
  "continentName" : "Africa",
  "countryName" : "Uganda",
  "capitalName" : "Kampala",
  "countryCode" : "UG",
  "capitalLatitude" : 0.31666666666666665,
  "capitalLongitude" : 32.55
}, {
  "CountryName" : "Zambia",
  "CapitalName" : "Lusaka",
  "CapitalLatitude" : -15.416666666666666,
  "CapitalLongitude" : 28.283333,
  "CountryCode" : "ZM",
  "ContinentName" : "Africa",
  "continentName" : "Africa",
  "countryName" : "Zambia",
  "capitalName" : "Lusaka",
  "countryCode" : "ZM",
  "capitalLatitude" : -15.416666666666666,
  "capitalLongitude" : 28.283333
}, {
  "CountryName" : "Zimbabwe",
  "CapitalName" : "Harare",
  "CapitalLatitude" : -17.816666666666666,
  "CapitalLongitude" : 31.033333,
  "CountryCode" : "ZW",
  "ContinentName" : "Africa",
  "continentName" : "Africa",
  "countryName" : "Zimbabwe",
  "capitalName" : "Harare",
  "countryCode" : "ZW",
  "capitalLatitude" : -17.816666666666666,
  "capitalLongitude" : 31.033333
}, {
  "CountryName" : "British Indian Ocean Territory",
  "CapitalName" : "Diego Garcia",
  "CapitalLatitude" : -7.3,
  "CapitalLongitude" : 72.4,
  "CountryCode" : "IO",
  "ContinentName" : "Africa",
  "continentName" : "Africa",
  "countryName" : "British Indian Ocean Territory",
  "capitalName" : "Diego Garcia",
  "countryCode" : "IO",
  "capitalLatitude" : -7.3,
  "capitalLongitude" : 72.4
} ]