[ {
  "CountryName" : "Belize",
  "CapitalName" : "Belmopan",
  "CapitalLatitude" : 17.25,
  "CapitalLongitude" : -88.766667,
  "CountryCode" : "BZ",
  "ContinentName" : "Central America",
  "continentName" : "Central America",
  "countryName" : "Belize",
  "capitalName" : "Belmopan",
  "countryCode" : "BZ",
  "capitalLatitude" : 17.25,
  "capitalLongitude" : -88.766667
}, {
  "CountryName" : "Canada",
  "CapitalName" : "Ottawa",
  "CapitalLatitude" : 45.416666666666664,
  "CapitalLongitude" : -75.7,
  "CountryCode" : "CA",
  "ContinentName" : "Central America",
  "continentName" : "Central America",
  "countryName" : "Canada",
  "capitalName" : "Ottawa",
  "countryCode" : "CA",
  "capitalLatitude" : 45.416666666666664,
  "capitalLongitude" : -75.7
}, {
  "CountryName" : "Costa Rica",
  "CapitalName" : "San Jose",
  "CapitalLatitude" : 9.933333333333334,
  "CapitalLongitude" : -84.083333,
  "CountryCode" : "CR",
  "ContinentName" : "Central America",
  "continentName" : "Central America",
  "countryName" : "Costa Rica",
  "capitalName" : "San Jose",
  "countryCode" : "CR",
  "capitalLatitude" : 9.933333333333334,
  "capitalLongitude" : -84.083333
}, {
  "CountryName" : "El Salvador",
  "CapitalName" : "San Salvador",
  "CapitalLatitude" : 13.7,
  "CapitalLongitude" : -89.2,
  "CountryCode" : "SV",
  "ContinentName" : "Central America",
  "continentName" : "Central America",
  "countryName" : "El Salvador",
  "capitalName" : "San Salvador",
  "countryCode" : "SV",
  "capitalLatitude" : 13.7,
  "capitalLongitude" : -89.2
}, {
  "CountryName" : "Greenland",
  "CapitalName" : "Nuuk",
  "CapitalLatitude" : 64.18333333333334,
  "CapitalLongitude" : -51.75,
  "CountryCode" : "GL",
  "ContinentName" : "Central America",
  "continentName" : "Central America",
  "countryName" : "Greenland",
  "capitalName" : "Nuuk",
  "countryCode" : "GL",
  "capitalLatitude" : 64.18333333333334,
  "capitalLongitude" : -51.75
}, {
  "CountryName" : "Guatemala",
  "CapitalName" : "Guatemala City",
  "CapitalLatitude" : 14.616666666666667,
  "CapitalLongitude" : -90.516667,
  "CountryCode" : "GT",
  "ContinentName" : "Central America",
  "continentName" : "Central America",
  "countryName" : "Guatemala",
  "capitalName" : "Guatemala City",
  "countryCode" : "GT",
  "capitalLatitude" : 14.616666666666667,
  "capitalLongitude" : -90.516667
}, {
  "CountryName" : "Honduras",
  "CapitalName" : "Tegucigalpa",
  "CapitalLatitude" : 14.1,
  "CapitalLongitude" : -87.216667,
  "CountryCode" : "HN",
  "ContinentName" : "Central America",
  "continentName" : "Central America",
  "countryName" : "Honduras",
  "capitalName" : "Tegucigalpa",
  "countryCode" : "HN",
  "capitalLatitude" : 14.1,
  "capitalLongitude" : -87.216667
}, {
  "CountryName" : "Mexico",
  "CapitalName" : "Mexico City",
  "CapitalLatitude" : 19.433333333333334,
  "CapitalLongitude" : -99.133333,
  "CountryCode" : "MX",
  "ContinentName" : "Central America",
  "continentName" : "Central America",
  "countryName" : "Mexico",
  "capitalName" : "Mexico City",
  "countryCode" : "MX",
  "capitalLatitude" : 19.433333333333334,
  "capitalLongitude" : -99.133333
}, {
  "CountryName" : "Nicaragua",
  "CapitalName" : "Managua",
  "CapitalLatitude" : 12.133333333333333,
  "CapitalLongitude" : -86.25,
  "CountryCode" : "NI",
  "ContinentName" : "Central America",
  "continentName" : "Central America",
  "countryName" : "Nicaragua",
  "capitalName" : "Managua",
  "countryCode" : "NI",
  "capitalLatitude" : 12.133333333333333,
  "capitalLongitude" : -86.25
}, {
  "CountryName" : "Panama",
  "CapitalName" : "Panama City",
  "CapitalLatitude" : 8.966666666666667,
  "CapitalLongitude" : -79.533333,
  "CountryCode" : "PA",
  "ContinentName" : "Central America",
  "continentName" : "Central America",
  "countryName" : "Panama",
  "capitalName" : "Panama City",
  "countryCode" : "PA",
  "capitalLatitude" : 8.966666666666667,
  "capitalLongitude" : -79.533333
}, {
  "CountryName" : "Saint Pierre and Miquelon",
  "CapitalName" : "Saint-Pierre",
  "CapitalLatitude" : 46.766666666666666,
  "CapitalLongitude" : -56.183333,
  "CountryCode" : "PM",
  "ContinentName" : "Central America",
  "continentName" : "Central America",
  "countryName" : "Saint Pierre and Miquelon",
  "capitalName" : "Saint-Pierre",
  "countryCode" : "PM",
  "capitalLatitude" : 46.766666666666666,
  "capitalLongitude" : -56.183333
}, {
  "CountryName" : "Saint Vincent and the Grenadines",
  "CapitalName" : "Kingstown",
  "CapitalLatitude" : 13.133333333333333,
  "CapitalLongitude" : -61.216667,
  "CountryCode" : "VC",
  "ContinentName" : "Central America",
  "continentName" : "Central America",
  "countryName" : "Saint Vincent and the Grenadines",
  "capitalName" : "Kingstown",
  "countryCode" : "VC",
  "capitalLatitude" : 13.133333333333333,
  "capitalLongitude" : -61.216667
}, {
  "CountryName" : "United States",
  "CapitalName" : "Washington D.C.",
  "CapitalLatitude" : 38.883333,
  "CapitalLongitude" : -77.0,
  "CountryCode" : "US",
  "ContinentName" : "Central America",
  "continentName" : "Central America",
  "countryName" : "United States",
  "capitalName" : "Washington D.C.",
  "countryCode" : "US",
  "capitalLatitude" : 38.883333,
  "capitalLongitude" : -77.0
} ]